[   
    
    {"name": "Stocken", 
    "city": "Uppsala",
    "selected": false,
    "coordinates": {"x": 940, "y": 740}},

    {"name": "Snerikes",
    "city": "Uppsala",
    "selected": false,
    "coordinates": {"x": 290, "y": 265}},

    {"name": "Värmlands",
    "city": "Uppsala",
    "selected": false,
    "coordinates": {"x": 810, "y": 560}},

    {"name": "Norrlands",
    "city": "Uppsala",
    "selected": false,
    "coordinates": {"x": 1155, "y": 610}},

    {"name": "Göteborg",
    "city": "Uppsala",
    "selected": false,
    "coordinates": {"x": 185, "y": 160}},
    
    {"name": "Palermo",
    "city": "Uppsala",
    "selected": false,
    "coordinates": {"x": 300, "y": 80}},

    {"name":"Atmosfär",
    "city": "Malmö",
    "selected": false},

    {"name":"Victors",
    "city": "Malmö",
    "selected": false},

    {"name":"Mikkeller",
    "city": "Malmö",
    "selected": false},

    {"name":"Nyvhamn",
    "city": "Malmö",
    "selected": false},

    {"name":"Far i hatten",
    "city": "Malmö",
    "selected": false},

    {"name":"Escama",
    "city": "Malmö",
    "selected": false},

    {"name":"Kontrast",
    "city": "Malmö",
    "selected": false},

    {"name":"Omnipollos hatt",
    "city": "Stockholm",
    "selected": false},

    {"name":"Carmen",
    "city": "Stockholm",
    "selected": false},

    {"name":"Mosebacke",
    "city": "Stockholm",
    "selected": false},

    {"name":"Bananas",
    "city": "Stockholm",
    "selected": false},

    {"name":"Kloster",
    "city": "Stockholm",
    "selected": false},

    {"name":"Häktet",
    "city": "Stockholm",
    "selected": false},

    {"name":"Tjoget",
    "city": "Stockholm",
    "selected": false}
]